{
"type": "FeatureCollection",
"name": "Rally",
"crs": { "type": "name", "properties": { "name": "urn:ogc:def:crs:OGC:1.3:CRS84" } },
"features": [
{ "type": "Feature", "properties": { "name": "Ribadelles, Spain", "description": null, "countryCode": "es" }, "geometry": { "type": "Point", "coordinates": [ 0.6908422, 41.1868075 ] } },
{ "type": "Feature", "properties": { "name": "Łęczna county, Poland", "description": null, "countryCode": "pl" }, "geometry": { "type": "Point", "coordinates": [ 21.8023804, 53.9195587 ] } },
{ "type": "Feature", "properties": { "name": "Monte Carlo, Monaco", "description": null, "countryCode": "mc" }, "geometry": { "type": "Point", "coordinates": [ 7.3819723, 43.9880907 ] } },
{ "type": "Feature", "properties": { "name": "Värmland, Sweden", "description": null, "countryCode": "se" }, "geometry": { "type": "Point", "coordinates": [ 13.2888603, 60.038297 ] } },
{ "type": "Feature", "properties": { "name": "Jämsä, Finland", "description": null, "countryCode": "fi" }, "geometry": { "type": "Point", "coordinates": [ 25.0433075, 61.7646777 ] } },
{ "type": "Feature", "properties": { "name": "Baumholder, Germany", "description": null, "countryCode": "de" }, "geometry": { "type": "Point", "coordinates": [ 7.3315651, 49.648893 ] } },
{ "type": "Feature", "properties": { "name": "Powys, Wales", "description": null, "countryCode": "gb-wls" }, "geometry": { "type": "Point", "coordinates": [ -3.7057154, 52.4492857 ] } },
{ "type": "Feature", "properties": { "name": "Argolis, Greece", "description": null, "countryCode": "gr" }, "geometry": { "type": "Point", "coordinates": [ 22.5409777, 37.7747883 ] } },
{ "type": "Feature", "properties": { "name": "Perth and Kinross, Scotland", "description": null, "countryCode": "gb-sct" }, "geometry": { "type": "Point", "coordinates": [ -3.6604991, 56.6215644 ] } },
{ "type": "Feature", "properties": { "name": "New England, United States", "description": null, "countryCode": "us" }, "geometry": { "type": "Point", "coordinates": [ -121.7244379, 47.5975051 ] } },
{ "type": "Feature", "properties": { "name": "Catamarca Province, Argentina", "description": null, "countryCode": "ar" }, "geometry": { "type": "Point", "coordinates": [ -64.726425, -31.5792556 ] } },
{ "type": "Feature", "properties": { "name": "Monaro, Australia", "description": null, "countryCode": "au" }, "geometry": { "type": "Point", "coordinates": [ 152.8293933, -30.6879373 ] } },
{ "type": "Feature", "properties": { "name": "Hawkes Bay, New Zealand", "description": null, "countryCode": "nz" }, "geometry": { "type": "Point", "coordinates": [ 174.798115200000012, -37.8846745 ] } }
]
}
